{"results":[{"zip":"28270","lon":"-80.76000213623047","link":"http:\/\/www.meetup.com\/members\/3170722","guests":"0","answers":[],"state":"NC","city":"Charlotte","country":"us","coord":"35.119998931884766","response":"yes","updated":"Thu Oct 02 22:27:22 EDT 2008","created":"Thu Oct 02 22:27:22 EDT 2008","name":"Brian Blanton","comment":""},{"zip":"28115","lon":"-80.81999969482422","link":"http:\/\/www.meetup.com\/members\/7780724","guests":"0","answers":[],"state":"NC","city":"Mooresville","country":"us","coord":"35.58000183105469","response":"yes","updated":"Thu Oct 09 23:00:04 EDT 2008","created":"Thu Oct 09 23:00:04 EDT 2008","name":"Jared Pace","comment":""},{"zip":"28270","lon":"-80.76000213623047","link":"http:\/\/www.meetup.com\/members\/5032281","guests":"0","answers":[],"state":"NC","city":"Charlotte","country":"us","coord":"35.119998931884766","response":"yes","updated":"Fri Oct 31 18:24:43 EDT 2008","created":"Fri Oct 31 18:24:43 EDT 2008","name":"Jim Van Fleet","comment":""},{"zip":"28078","lon":"-80.8499984741211","link":"http:\/\/www.meetup.com\/members\/69074","guests":"0","answers":[],"state":"NC","city":"Huntersville","country":"us","coord":"35.40999984741211","response":"yes","updated":"Thu Oct 30 16:01:14 EDT 2008","created":"Thu Oct 30 16:01:14 EDT 2008","name":"Larry Staton Jr.","comment":""}],"meta":{"lon":"","count":4,"link":"http:\/\/api.meetup.com\/rsvps\/","next":"","total_count":4,"url":"http:\/\/api.meetup.com\/rsvps\/?order=name&key=4824d125e1c13f6253694f65383d33&event_id=8876699&page=10&format=json&offset=0","id":"","title":"Rsvps for meetups","updated":"2008-10-31 18:24:43 EDT","description":"API method for accessing meetup rsvps","method":"Rsvps","lat":""}}